     2.11           OBSERVATION DATA    M (MIXED)           RINEX VERSION / TYPE
teqc  2013Mar15                         20170203 13:24:25UTCPGM / RUN BY / DATE
ONSA                                                        MARKER NAME
10402M004                                                   MARKER NUMBER
SWEPOS              LMV                                     OBSERVER / AGENCY
AG72YY6YV40         JPS E_GGD           2.6.1 Jan,10,2008   REC # / TYPE / VERS
  3370658.8318   711876.9387  5349786.7450                  APPROX POSITION XYZ
        0.9950        0.0000        0.0000                  ANTENNA: DELTA H/E/N
     1     1                                                WAVELENGTH FACT L1/2
     7    C1    L1    L2    P1    P2    S1    S2            # / TYPES OF OBSERV
    30.0000                                                 INTERVAL
    16                                                      LEAP SECONDS
020                 AOAD/M_B        OSOD                    ANT # / TYPE
Linux2.6.32-279.el6.x86_64|x86_64|gcc|Win64-MinGW64|=       COMMENT
teqc  2013Mar15                         20170203 13:16:18UTCCOMMENT
teqc  2010Oct21                         20130131 03:49:58UTCCOMMENT
MSXP|IAx86-PII|bcc32 5.0|MSWin95->XP|486/DX+                COMMENT
teqc  2010Oct21                         20130130 01:00:06UTCCOMMENT
Forced Modulo Decimation to 30 seconds                      COMMENT
IMoS GFileSrv 3.61  Lantmäteriet        29.01.2013          COMMENT
teqc edited: all GLONASS satellites excluded                COMMENT
  2013     1    30     0     0    0.0000000     GPS         TIME OF FIRST OBS
                                                            END OF HEADER
 13  1 30  0  0  0.0000000  0  8G25G02G12G29G04G24G31G14
  20228233.393 8 106300112.188 8  82831275.50346  20228233.026 6  20228237.834 6
        53.000          44.000
  22354588.314 8 117474175.421 8  91538339.44945  22354587.714 5  22354587.905 5
        50.000          36.000
  20824196.765 8 109431928.317 8  85271654.59546  20824196.477 6  20824197.966 6
        52.000          43.000
  22090894.440 7 116088451.734 7  90458548.32345  22090893.942 5  22090896.202 5
        49.000          36.000
  23025040.753 6 120997428.785 6  94283726.84043  23025040.909 3  23025043.276 3
        44.000          26.000
  24329837.388 5 127854145.943 5  99626622.80241  24329837.506 1  24329843.404 1
        36.000          18.000
  23058909.104 7 121175400.832 7  94422391.89444  23058909.342 4  23058910.037 4
        46.000          31.000
  22928336.589 6 120489228.409 6  93887719.92943  22928335.933 3  22928338.790 3
        44.000          27.000
 13  1 30  0  0 30.0000000  0  8G25G02G12G29G04G24G31G14
  20224849.555 8 106282329.286 8  82817418.69347  20224849.171 6  20224853.854 7
        53.000          45.000
  22348158.293 7 117440387.447 7  91512011.16545  22348158.001 5  22348158.491 5
        49.000          36.000
  20834588.150 8 109486534.868 8  85314205.14846  20834587.926 6  20834589.225 6
        52.000          43.000
  22073375.507 7 115996395.255 7  90386816.01545  22073375.698 5  22073378.257 5
        48.000          36.000
  23034819.801 7 121048814.358 7  94323767.53243  23034819.497 3  23034822.520 3
        45.000          26.000
  24351744.040 5 127969266.263 5  99716326.88541  24351744.626 1  24351750.634 1
        37.000          19.000
  23042120.478 7 121087176.060 7  94353645.32344  23042120.408 4  23042122.044 4
        45.000          32.000
  22942569.656 6 120564026.301 6  93946003.97543  22942569.482 3  22942571.998 3
        44.000          27.000
 13  1 30  0  1  0.0000000  0  8G25G02G12G29G04G24G31G14
  20221551.116 8 106264996.143 8  82803912.34447  20221550.803 7  20221555.503 7
        53.000          45.000
  22341829.354 8 117407124.337 8  91486091.86745  22341828.351 5  22341828.906 5
        50.000          36.000
  20845049.658 8 109541513.298 8  85357045.48246  20845049.821 6  20845051.326 6
        52.000          43.000
  22055919.616 7 115904662.831 7  90315336.22345  22055919.836 5  22055922.147 5
        48.000          36.000
  23044708.488 7 121100776.155 7  94364257.22743  23044707.997 3  23044710.192 3
        45.000          27.000
  24373670.329 5 128084492.691 5  99806113.66241  24373670.784 1  24373677.647 1
        35.000          18.000
  23025386.585 7 120999241.447 7  94285124.83644  23025387.167 4  23025388.111 4
        46.000          31.000
  22956882.083 7 120639237.167 7  94004609.82843  22956882.089 3  22956884.558 3
        45.000          27.000
 13  1 30  0  1 30.0000000  0  8G25G02G12G29G04G24G31G14
  20218338.067 8 106248113.214 8  82790756.81846  20218337.879 6  20218342.638 6
        54.000          44.000
  22335599.129 7 117374387.863 7  91460582.93945  22335598.332 5  22335599.478 5
        49.000          36.000
  20855582.173 8 109596862.108 8  85400174.41946  20855582.177 6  20855583.960 6
        53.000          43.000
  22038525.706 7 115813255.834 7  90244110.01545  22038525.381 5  22038527.897 5
        49.000          36.000
  23054704.772 7 121153312.408 7  94405194.57443  23054705.246 3  23054707.400 3
        45.000          26.000
  24395619.691 5 128199823.074 5  99895981.48541  24395618.858 1  24395624.217 1
        38.000          19.000
  23008709.213 7 120911599.478 7  94216832.40444  23008709.557 4  23008710.506 4
        46.000          31.000
  22971273.633 7 120714858.452 7  94063535.48443  22971272.440 3  22971275.071 3
        45.000          27.000
 13  1 30  0  2  0.0000000  0  8G25G02G12G29G04G24G31G14
  20215211.317 8 106231680.939 8  82777952.44846  20215211.041 6  20215215.792 6
        53.000          44.000
  22329469.451 7 117342179.177 7  91435485.26545  22329469.277 5  22329470.179 5
        49.000          36.000
  20866185.115 8 109652580.448 8  85443591.29846  20866185.200 6  20866186.891 6
        52.000          42.000
  22021193.659 7 115722176.618 7  90173139.23545  22021193.687 5  22021196.029 5
        48.000          36.000
  23064812.465 7 121206421.121 7  94446577.98243  23064811.585 3  23064814.041 3
        46.000          26.000
  24417584.965 5 128315255.321 5  99985928.62941  24417584.787 1  24417590.242 1
        37.000          19.000
  22992088.331 7 120824252.295 7  94148769.65744  22992087.917 4  22992088.797 4
        47.000          32.000
  22985741.275 6 120790887.368 6  94122778.77143  22985740.754 3  22985742.301 3
        44.000          26.000
 13  1 30  0  2 30.0000000  0  8G25G02G12G29G04G24G31G14
  20212169.995 8 106215699.828 8  82765499.63946  20212169.862 6  20212174.611 6
        53.000          44.000
  22323440.818 7 117310499.494 7  91410799.80945  22323440.956 5  22323441.373 5
        49.000          36.000
  20876858.442 8 109708666.851 8  85487294.98646  20876858.099 6  20876859.638 6
        53.000          42.000
  22003924.525 7 115631426.572 7  90102424.93245  22003924.692 5  22003926.998 5
        48.000          36.000
  23075025.248 7 121260100.312 7  94488405.94143  23075025.716 3  23075027.817 3
        45.000          25.000
  24439570.031 5 128430787.446 5 100075953.61141  24439571.515 1  24439574.455 1
        38.000          19.000
  22975523.107 7 120737202.067 7  94080938.32444  22975522.816 4  22975523.459 4
        46.000          31.000
  23000285.551 6 120867321.342 6  94182337.68843  23000284.517 3  23000287.181 3
        44.000          26.000
 13  1 30  0  3  0.0000000  0  8G25G02G12G29G04G24G31G14
  20209214.992 8 106200170.301 8  82753398.71346  20209214.837 6  20209219.568 6
        53.000          44.000
  22317513.516 7 117279349.962 7  91386527.45645  22317513.315 5  22317514.055 5
        49.000          36.000
  20887600.795 8 109765120.997 8  85531285.22646  20887600.791 6  20887602.538 6
        52.000          42.000
  21986718.983 7 115541007.641 7  90031968.64045  21986718.805 5  21986720.540 5
        49.000          37.000
  23085349.011 7 121314348.382 7  94530677.15743  23085348.557 3  23085351.783 3
        45.000          25.000
  24461574.855 5 128546417.556 5 100166054.99241  24461574.377 1  24461578.517 1
        39.000          19.000
  22959015.135 7 120650451.026 7  94013340.10844  22959014.784 4  22959015.357 4
        47.000          32.000
  23014906.912 6 120944157.615 6  94242210.08943  23014906.634 3  23014909.242 3
        43.000          26.000
 13  1 30  0  3 30.0000000  0  8G25G02G12G29G04G24G31G14
  20206345.901 8 106185092.839 8  82741650.04647  20206345.628 6  20206350.254 7
        53.000          45.000
  22311687.248 7 117248731.833 7  91362669.19145  22311687.071 5  22311687.436 5
        49.000          36.000
  20898413.456 8 109821941.667 8  85575561.06646  20898413.401 6  20898415.045 6
        51.000          43.000
  21969575.615 7 115450921.322 7  89961771.52545  21969575.524 5  21969577.913 5
        49.000          36.000
  23095780.245 7 121369162.874 7  94573389.77743  23095780.114 3  23095782.562 3
        45.000          26.000
  24483594.439 5 128662143.440 5 100256230.94542  24483596.386 1  24483602.530 2
        37.000          20.000
  22942563.924 7 120564001.786 7  93945977.06344  22942563.833 4  22942564.756 4
        46.000          31.000
  23029604.069 6 121021393.519 6  94302393.88443  23029604.100 3  23029605.843 3
        43.000          26.000
 13  1 30  0  4  0.0000000  0  8G25G02G12G29G04G24G31G14
  20203563.088 8 106170467.852 8  82730253.95746  20203562.687 6  20203567.360 6
        53.000          44.000
  22305961.848 7 117218646.191 7  91339225.84545  22305961.745 5  22305962.197 5
        49.000          36.000
  20909295.902 8 109879127.438 8  85620121.40546  20909295.628 6  20909297.157 6
        52.000          43.000
  21952497.158 8 115361169.590 8  89891835.13045  21952496.708 5  21952498.858 5
        50.000          37.000
  23106318.202 7 121424542.155 7  94616542.47943  23106318.657 3  23106320.588 3
        45.000          26.000
  24505637.517 5 128777963.121 5 100346480.00341  24505635.943 1  24505640.221 1
        39.000          19.000
  22926170.690 7 120477856.658 7  93878850.98344  22926170.867 4  22926171.959 4
        46.000          32.000
  23044376.944 6 121099025.982 6  94362886.69043  23044377.110 3  23044378.854 3
        43.000          26.000
 13  1 30  0  4 30.0000000  0  8G25G02G12G29G04G24G31G14
  20200866.164 8 106156295.799 8  82719210.79946  20200865.830 6  20200870.514 6
        53.000          44.000
  22300339.223 8 117189094.250 8  91316198.37245  22300338.420 5  22300338.895 5
        50.000          36.000
  20920247.129 8 109936677.555 8  85664965.64546  20920246.987 6  20920248.579 6
        51.000          43.000
  21935480.908 7 115271754.125 7  89822160.76245  21935481.288 5  21935483.493 5
        49.000          37.000
  23116963.751 6 121480484.121 6  94660133.61843  23116963.653 3  23116965.957 3
        44.000          25.000
  24527691.786 5 128893874.480 5 100436800.52341  24527692.457 1  24527697.611 1
        36.000          19.000
  22909836.604 7 120392017.883 7  93811963.62844  22909836.388 4  22909837.322 4
        46.000          31.000
  23059224.975 6 121177052.401 6  94423686.46543  23059225.057 3  23059226.874 3
        43.000          26.000
 13  1 30  0  5  0.0000000  0  8G25G02G12G29G04G24G31G14
  20198255.460 8 106142577.083 8  82708520.89646  20198255.221 6  20198259.837 6
        53.000          44.000
  22294817.291 7 117160077.217 7  91293587.70445  22294816.787 5  22294816.896 5
        49.000          36.000
  20931267.594 8 109994590.654 8  85710092.72946  20931267.618 6  20931269.143 6
        52.000          43.000
  21918530.253 7 115182676.724 7  89752749.81945  21918530.198 5  21918532.540 5
        49.000          37.000
  23127714.771 6 121536986.828 6  94704161.69643  23127716.026 3  23127717.881 3
        41.000          25.000
  24549767.151 5 129009875.799 5 100527191.14541  24549765.729 1  24549772.612 1
        37.000          18.000
  22893560.247 7 120306487.491 7  93745316.57044  22893560.247 4  22893561.460 4
        46.000          32.000
  23074147.707 6 121255470.051 6  94484791.10643  23074147.469 3  23074149.871 3
        43.000          26.000
 13  1 30  0  5 30.0000000  0  8G25G02G12G29G04G24G31G14
  20195731.274 8 106129312.152 8  82698184.59046  20195731.090 6  20195735.633 6
        53.000          44.000
  22289397.814 7 117131596.284 7  91271394.77645  22289397.165 5  22289397.174 5
        49.000          36.000
  20942357.217 8 110052866.270 8  85755502.29346  20942357.152 6  20942358.511 6
        52.000          42.000
  21901644.122 7 115093939.356 7  89683603.84045  21901644.077 5  21901646.671 5
        48.000          37.000
  23138573.968 6 121594048.365 6  94748625.21142  23138574.257 2  23138575.877 2
        41.000          24.000
  24571857.805 5 129125964.337 5 100617649.67342  24571858.042 2  24571863.716 2
        38.000          21.000
  22877343.059 7 120221268.219 7  93678911.93944  22877343.587 4  22877344.814 4
        46.000          32.000
  23089143.862 6 121334276.159 6  94546198.44443  23089143.284 3  23089146.236 3
        44.000          25.000
 13  1 30  0  6  0.0000000  0  8G25G02G12G29G04G24G31G14
  20193293.800 8 106116501.382 8  82688202.16946  20193293.200 6  20193297.789 6
        53.000          44.000
  22284080.267 8 117103652.392 8  91249620.31845  22284079.447 5  22284080.068 5
        50.000          36.000
  20953515.416 8 110111502.751 8  85801193.05046  20953515.369 6  20953516.779 6
        53.000          43.000
  21884823.107 7 115005543.491 7  89614723.96545  21884823.168 5  21884825.377 5
        49.000          37.000
  23149537.776 6 121651666.504 6  94793522.45042  23149537.300 2  23149540.693 2
        42.000          24.000
  24593964.074 5 129242138.389 5 100708174.87941  24593965.227 1  24593969.906 1
        37.000          17.000
  22861186.503 7 120136361.968 7  93612751.23344  22861186.680 4  22861187.475 4
        47.000          32.000
  23104214.291 6 121413468.036 6  94607906.37843  23104212.986 3  23104216.203 3
        43.000          26.000
 13  1 30  0  6 30.0000000  0  8G25G02G12G29G04G24G31G14
  20190942.261 8 106104145.185 8  82678573.96646  20190941.863 6  20190946.467 6
        53.000          44.000
  22278864.822 7 117076246.864 7  91228265.37245  22278863.938 5  22278864.336 5
        49.000          35.000
  20964742.233 8 110170499.412 8  85847164.47046  20964741.970 6  20964743.433 6
        52.000          42.000
  21868066.791 7 114917490.820 7  89546111.50945  21868067.094 5  21868069.362 5
        47.000          37.000
  23160608.100 6 121709839.214 6  94838851.85243  23160607.644 3  23160611.203 3
        43.000          25.000
  24616088.972 5 129358396.167 5 100798765.36541  24616088.764 1  24616093.095 1
        37.000          17.000
  22845089.777 7 120051770.962 7  93546836.16944  22845089.800 4  22845090.489 4
        46.000          32.000
  23119355.593 6 121493043.025 6  94669912.83443  23119355.736 3  23119358.778 3
        43.000          26.000
 13  1 30  0  7  0.0000000  0  8G25G02G12G29G04G24G31G14
  20188677.967 8 106092243.936 8  82669300.26146  20188677.093 6  20188681.749 6
        53.000          44.000
  22273752.067 8 117049380.524 8  91207330.57845  22273751.362 5  22273752.097 5
        50.000          36.000
  20976036.771 8 110229854.782 8  85893415.40046  20976036.890 6  20976038.518 6
        52.000          43.000
  21851376.952 7 114829782.949 7  89477767.72345  21851376.853 5  21851379.227 5
        48.000          37.000
  23171783.828 7 121768564.431 7  94884611.76043  23171783.676 3  23171786.282 3
        45.000          26.000
  24638226.072 5 129474735.197 5 100889419.10641  24638227.115 1  24638232.891 1
        36.000          19.000
  22829052.876 7 119967497.589 7  93481168.59844  22829052.832 4  22829053.887 4
        46.000          33.000
  23134571.313 6 121572997.614 6  94732215.08243  23134570.813 3  23134574.164 3
        43.000          25.000
 13  1 30  0  7 30.0000000  0  8G25G02G12G29G04G24G31G14
  20186499.298 8 106080798.072 8  82660381.40746  20186498.967 6  20186503.672 6
        53.000          44.000
  22268742.623 8 117023054.588 8  91186816.87045  22268742.095 5  22268742.652 5
        50.000          36.000
  20987399.946 8 110289567.954 8  85939945.13546  20987399.966 6  20987401.467 6
        52.000          42.000
  21834752.218 7 114742421.898 7  89409694.17445  21834752.625 5  21834754.723 5
        49.000          37.000
  23183063.192 7 121827839.962 7  94930800.48743  23183063.131 3  23183065.565 3
        45.000          26.000
  24660380.751 5 129591153.711 5 100980134.72441  24660379.206 1  24660386.110 1
        35.000          16.000
  22813077.216 7 119883544.495 7  93415750.60944  22813077.261 4  22813078.470 4
        47.000          32.000
  23149858.443 6 121653329.312 6  94794811.17543  23149857.251 3  23149859.719 3
        43.000          25.000
 13  1 30  0  8  0.0000000  0  8G25G02G12G29G04G24G31G14
  20184408.118 8 106069807.925 8  82651817.65347  20184407.693 6  20184412.317 7
        53.000          45.000
  22263836.184 7 116997269.966 7  91166724.96945  22263835.421 5  22263835.975 5
        49.000          36.000
  20998831.099 8 110349637.821 8  85986752.81946  20998830.973 6  20998832.346 6
        52.000          42.000
  21818194.308 8 114655409.379 8  89341892.22345  21818194.548 5  21818196.945 5
        50.000          37.000
  23194447.870 7 121887663.892 7  94977416.53443  23194447.698 3  23194449.569 3
        45.000          26.000
  24682548.559 5 129707649.535 5 101070910.72641  24682549.786 1  24682552.846 1
        38.000          17.000
  22797162.984 7 119799913.657 7  93350583.71744  22797162.789 4  22797163.934 4
        47.000          33.000
  23165216.302 6 121734035.345 6  94857698.96343  23165215.850 3  23165217.838 3
        42.000          25.000
 13  1 30  0  8 30.0000000  0  8G25G02G12G29G04G24G31G14
  20182403.761 8 106059273.878 8  82643609.30146  20182403.216 6  20182407.765 6
        53.000          44.000
  22259031.842 7 116972027.514 7  91147055.53645  22259031.721 5  22259032.569 5
        47.000          36.000
  21010329.977 8 110410063.389 8  86033837.67546  21010329.627 6  21010330.718 6
        53.000          42.000
  21801703.173 7 114568746.820 7  89274362.97245  21801703.261 5  21801705.463 5
        49.000          37.000
  23205935.759 7 121948033.973 7  95024458.14343  23205935.805 3  23205938.185 3
        45.000          26.000
  24704730.560 4 129824220.617 4 101161745.27341  24704729.271 1  24704737.160 1
        34.000          16.000
  22781310.240 7 119716607.599 7  93285669.90744  22781310.243 4  22781311.000 4
        46.000          33.000
  23180644.793 6 121815113.147 6  94920876.45043  23180644.680 3  23180646.398 3
        43.000          25.000
 13  1 30  0  9  0.0000000  0  8G25G02G12G29G04G24G31G14
  20180485.503 8 106049196.279 8  82635756.62747  20180485.408 6  20180490.115 7
        54.000          45.000
  22254332.030 7 116947328.448 7  91127809.52845  22254331.707 5  22254332.432 5
        49.000          36.000
  21021895.760 8 110470843.492 8  86081198.79246  21021895.549 6  21021897.001 6
        52.000          43.000
  21785279.153 7 114482435.996 7  89207107.80045  21785279.008 5  21785281.187 5
        49.000          37.000
  23217526.979 6 122008948.074 6  95071923.68043  23217527.452 3  23217529.018 3
        44.000          25.000
  24726929.026 5 129940865.107 5 101252636.97741  24726927.335 1  24726933.586 1
        36.000          17.000
  22765518.972 7 119633628.261 7  93221010.69844  22765519.719 4  22765520.830 4
        47.000          33.000
  23196143.016 6 121896559.623 6  94984341.20043  23196143.422 3  23196145.248 3
        43.000          25.000
 13  1 30  0  9 30.0000000  0  8G25G02G12G29G04G24G31G14
  20178654.810 8 106039575.519 8  82628259.93147  20178654.655 7  20178659.254 7
        53.000          45.000
  22249736.268 8 116923173.777 8  91108987.72045  22249735.455 5  22249735.634 5
        50.000          36.000
  21033528.957 8 110531976.784 8  86128835.12046  21033528.862 6  21033530.262 6
        51.000          42.000
  21768921.920 7 114396478.557 7  89140127.99545  21768921.711 5  21768923.947 5
        49.000          37.000
  23229221.819 7 122070404.172 7  95119811.56943  23229222.310 3  23229223.587 3
        45.000          25.000
  24749138.016 5 130057580.797 5 101343584.33341  24749138.224 1  24749143.235 1
        36.000          16.000
  22749791.668 7 119550978.152 7  93156608.01644  22749791.601 4  22749793.070 4
        47.000          33.000
  23211712.033 6 121978372.013 6  95048091.09943  23211711.556 3  23211713.572 3
        43.000          25.000
 13  1 30  0 10  0.0000000  0  8G25G02G12G29G04G24G31G14
  20176911.287 8 106030411.908 8  82621119.45247  20176910.804 6  20176915.472 7
        54.000          45.000
  22245243.144 8 116899564.287 8  91090590.71345  22245242.681 5  22245243.002 5
        50.000          36.000
  21045229.036 8 110593462.762 8  86176746.26146  21045229.294 6  21045230.786 6
        53.000          42.000
  21752631.594 7 114310876.409 7  89073425.05045  21752632.011 5  21752634.343 5
        49.000          38.000
  23241019.709 7 122132399.992 7  95168119.96943  23241019.217 3  23241021.672 3
        45.000          25.000
  24771359.209 4 130174365.550 4 101434585.36041  24771359.409 1  24771367.157 1
        33.000          15.000
  22734127.300 7 119468659.420 7  93092463.54544  22734127.087 4  22734127.921 4
        46.000          33.000
  23227348.627 6 122060547.432 6  95112123.85743  23227348.711 3  23227350.935 3
        42.000          25.000
 13  1 30  0 10 30.0000000  0  8G25G02G12G29G04G24G31G14
  20175254.645 8 106021705.810 8  82614335.48046  20175254.176 6  20175258.837 6
        53.000          44.000
  22240854.266 7 116876500.870 7  91072619.23045  22240853.940 5  22240854.381 5
        48.000          36.000
  21056997.119 8 110655300.439 8  86224931.45846  21056996.705 6  21056998.225 6
        53.000          42.000
  21736410.402 8 114225630.888 8  89006999.99345  21736410.148 5  21736412.569 5
        50.000          38.000
  23252919.608 6 122194933.114 6  95216847.06543  23252919.807 3  23252921.602 3
        44.000          25.000
  24793599.937 5 130291217.439 5 101525638.70241  24793598.949 1  24793603.927 1
        37.000          17.000
  22718525.822 7 119386674.709 7  93028579.35744  22718525.749 4  22718527.275 4
        46.000          33.000
  23243055.473 6 122143082.889 6  95176437.17643  23243055.258 3  23243057.314 3
        43.000          25.000
 13  1 30  0 11  0.0000000  0  8G25G02G12G29G04G24G31G14
  20173684.940 8 106013457.531 8  82607908.24647  20173684.673 7  20173689.204 7
        54.000          45.000
  22236569.763 7 116853984.532 7  91055074.04545  22236569.084 5  22236569.108 5
        49.000          36.000
  21068830.616 8 110717488.296 8  86273389.51946  21068830.371 6  21068832.028 6
        52.000          42.000
  21720257.257 8 114140744.125 8  88940854.48445  21720256.774 5  21720259.323 5
        50.000          38.000
  23264920.603 6 122258001.542 6  95265991.31042  23264920.907 2  23264922.884 2
        44.000          24.000
  24815846.155 5 130408134.255 5 101616742.73041  24815847.328 1  24815853.133 1
        35.000          17.000
  22702988.794 7 119305026.173 7  92964957.12844  22702988.851 4  22702989.789 4
        47.000          33.000
  23258829.816 6 122225975.527 6  95241028.80343  23258828.851 3  23258831.197 3
        43.000          25.000
 13  1 30  0 11 30.0000000  0  8G25G02G12G29G04G24G31G14
  20172202.562 8 106005667.410 8  82601838.02746  20172202.249 6  20172206.712 6
        54.000          44.000
  22232388.917 8 116832016.180 8  91037955.85745  22232388.666 5  22232388.996 5
        50.000          36.000
  21080730.460 8 110780025.362 8  86322119.69946  21080730.813 6  21080732.169 6
        52.000          42.000
  21704171.880 8 114056217.486 8  88874989.59445  21704172.056 5  21704174.576 5
        50.000          38.000
  23277023.091 6 122321602.940 6  95315550.84342  23277023.356 2  23277025.103 2
        42.000          23.000
  24838107.827 5 130525114.269 5 101707895.90841  24838107.537 1  24838114.181 1
        35.000          11.000
  22687516.213 7 119223716.065 7  92901598.60444  22687515.606 4  22687517.126 4
        46.000          33.000
  23274670.866 6 122309222.691 6  95305896.68443  23274670.548 3  23274672.013 3
        43.000          25.000
 13  1 30  0 12  0.0000000  0  8G25G02G12G29G04G24G31G14
  20170807.331 8 105998335.743 8  82596125.03647  20170807.087 7  20170811.719 7
        53.000          45.000
  22228313.351 8 116810596.615 8  91021265.30145  22228312.642 5  22228313.146 5
        50.000          36.000
  21092697.168 8 110842909.907 8  86371120.62946  21092697.436 6  21092698.876 6
        52.000          42.000
  21688155.851 8 113972052.630 8  88809406.60945  21688156.045 5  21688158.482 5
        50.000          39.000
  23289227.638 6 122385735.208 6  95365524.03642  23289228.247 2  23289228.625 2
        43.000          22.000
  24860380.591 5 130642155.019 5 101799096.44141  24860379.953 1  24860385.379 1
        37.000          17.000
  22672108.289 7 119142746.699 7  92838505.58444  22672108.085 4  22672109.095 4
        47.000          34.000
  23290580.374 6 122392821.311 6  95371038.44843  23290578.201 3  23290580.714 3
        42.000          25.000
 13  1 30  0 12 30.0000000  0  8G25G02G12G29G04G24G31G14
  20169499.406 8 105991462.889 8  82590769.56846  20169499.108 6  20169503.789 6
        53.000          44.000
  22224342.104 7 116789727.079 7  91005003.33045  22224341.354 5  22224341.550 5
        48.000          36.000
  21104730.071 8 110906141.808 8  86420392.23646  21104730.130 6  21104731.533 6
        51.000          42.000
  21672209.480 7 113888251.197 7  88744106.81845  21672209.273 5  21672211.574 5
        49.000          38.000
  23301532.032 6 122450396.108 6  95415909.15942  23301531.544 2  23301534.297 2
        42.000          22.000
  24882663.845 5 130759254.906 5 101890343.03841  24882663.644 1  24882667.592 1
        36.000          16.000
  22656764.841 7 119062120.055 7  92775679.64144  22656765.340 4  22656766.008 4
        47.000          33.000
  23306554.274 6 122476768.556 6  95436451.86242  23306552.837 2  23306555.191 2
        43.000          24.000
 13  1 30  0 13  0.0000000  0  8G25G02G12G29G04G24G31G14
  20168279.049 8 105985049.039 8  82585771.76546  20168278.653 6  20168283.196 6
        53.000          44.000
  22220475.017 7 116769407.700 7  90989170.04945  22220474.519 5  22220475.300 5
        49.000          36.000
  21116828.058 8 110969719.338 8  86469933.16046  21116828.452 6  21116830.274 6
        52.000          42.000
  21656331.803 8 113804814.548 8  88679091.26645  21656331.955 5  21656334.030 5
        50.000          39.000
  23313936.262 6 122515583.100 6  95466704.22042  23313935.724 2  23313939.362 2
        41.000          21.000
  24904956.830 5 130876411.639 5 101981633.99141  24904956.011 1  24904961.229 1
        36.000          13.000
  22641488.362 7 118981838.732 7  92713122.75544  22641488.072 4  22641489.347 4
        48.000          34.000
  23322594.183 6 122561061.427 6  95502134.59342  23322593.583 2  23322596.214 2
        44.000          24.000
 13  1 30  0 13 30.0000000  0  8G25G02G12G29G04G24G31G14
  20167145.888 8 105979094.594 8  82581131.93446  20167145.378 6  20167150.169 6
        53.000          44.000
  22216712.688 7 116749639.711 7  90973766.43045  22216712.639 5  22216713.472 5
        49.000          36.000
  21128993.159 8 111033641.602 8  86519742.71146  21128992.678 6  21128994.031 6
        52.000          42.000
  21640523.839 8 113721744.710 8  88614361.53745  21640524.190 5  21640526.465 5
        50.000          39.000
  23326440.096 6 122581294.238 6  95517907.71042  23326440.662 2  23326443.857 2
        42.000          21.000
  24927261.076 5 130993623.121 5 102072967.59941  24927262.964 1  24927267.355 1
        37.000          18.000
  22626277.404 7 118901904.863 7  92650836.62244  22626277.337 4  22626278.633 4
        48.000          34.000
  23338698.969 6 122645697.237 6  95568084.52242  23338699.841 2  23338701.007 2
        41.000          24.000
 13  1 30  0 14  0.0000000  0  8G25G02G12G29G04G24G31G14
  20166100.332 8 105973599.749 8  82576850.23247  20166099.923 7  20166104.560 7
        53.000          45.000
  22213056.328 7 116730423.752 7  90958792.96645  22213056.185 5  22213056.467 5
        49.000          36.000
  21141222.326 8 111097907.767 8  86569820.23646  21141222.075 6  21141223.472 6
        52.000          42.000
  21624786.685 8 113639043.176 8  88549918.80145  21624786.688 5  21624788.706 5
        52.000          39.000
  23339043.813 6 122647526.928 6  95569517.61041  23339044.331 2  23339046.989 1
        40.000          19.000
  24949576.747 5 131110887.755 5 102164342.62241  24949576.972 1  24949581.692 1
        36.000          15.000
  22611132.921 7 118822320.848 7  92588823.10644  22611133.084 4  22611134.336 4
        48.000          34.000
  23354870.015 6 122730672.800 6  95634299.21842  23354869.675 2  23354871.679 2
        42.000          23.000
 13  1 30  0 14 30.0000000  0  8G25G02G12G29G04G24G31G14
  20165141.889 8 105968564.838 8  82572926.92046  20165141.774 6  20165146.418 6
        53.000          44.000
  22209505.808 7 116711760.628 7  90944250.27845  22209504.558 5  22209505.184 5
        49.000          36.000
  21153516.494 8 111162516.228 8  86620164.48646  21153516.636 6  21153517.956 6
        52.000          41.000
  21609118.991 8 113556711.673 8  88485764.39745  21609119.476 5  21609121.563 5
        51.000          39.000
  23351746.878 6 122714279.255 6  95621532.38441  23351747.138 2  23351749.710 1
        40.000          19.000
  24971901.311 5 131228203.124 5 102255757.09141  24971900.030 1  24971905.738 1
        36.000          15.000
  22596055.374 7 118743088.991 7  92527084.00244  22596055.826 4  22596056.865 4
        47.000          34.000
  23371104.257 6 122815985.256 6  95700776.42142  23371104.591 2  23371106.503 2
        41.000          23.000
 13  1 30  0 15  0.0000000  0  8G25G02G12G29G04G24G31G14
  20164271.437 8 105963990.061 8  82569362.15947  20164271.111 6  20164275.828 7
        53.000          45.000
  22206059.236 7 116693651.303 7  90930139.12945  22206058.494 5  22206058.909 5
        49.000          36.000
  21165876.292 8 111227466.149 8  86670774.80746  21165876.078 6  21165877.528 6
        51.000          42.000
  21593522.930 7 113474751.632 7  88421899.44745  21593522.783 5  21593525.026 5
        49.000          39.000
  23364547.796 6 122781548.346 6  95673949.85442  23364547.873 2  23364550.822 2
        40.000          21.000
  24994233.885 5 131345567.084 5 102347209.55041  24994233.805 1  24994237.631 1
        36.000          14.000
  22581045.801 7 118664211.475 7  92465621.00444  22581045.781 5  22581047.161 4
        47.000          34.000
  23387402.605 6 122901631.801 6  95767513.95742  23387402.371 2  23387404.494 2
        43.000          23.000
 13  1 30  0 15 30.0000000  0  8G25G02G12G29G04G24G31G14
  20163488.914 8 105959875.759 8  82566156.21147  20163488.375 7  20163492.835 7
        53.000          45.000
  22202717.989 7 116676096.321 7  90916459.92745  22202717.819 5  22202718.676 5
        48.000          36.000
  21178300.383 8 111292756.082 8  86721650.06446  21178300.427 6  21178301.934 6
        51.000          41.000
  21577997.449 8 113393164.261 8  88358324.88945  21577997.276 5  21577999.322 5
        50.000          39.000
  23377447.271 6 122849332.100 6  95726768.36842  23377447.135 2  23377449.322 2
        41.000          20.000
  25016575.912 4 131462977.946 4 102438698.49341  25016576.761 1  25016583.290 1
        33.000          13.000
  22566103.587 7 118585690.517 7  92404435.84945  22566103.434 5  22566104.877 5
        46.000          35.000
  23403763.352 6 122987609.355 6  95834509.41042  23403762.971 2  23403765.062 2
        42.000          23.000
 13  1 30  0 16  0.0000000  0  8G25G02G12G29G04G24G31G14
  20162793.157 8 105956222.091 8  82563309.20047  20162792.991 6  20162797.597 7
        54.000          45.000
  22199483.452 7 116659096.422 7  90903213.25945  22199482.927 5  22199483.758 5
        49.000          36.000
  21190788.915 8 111358384.999 8  86772789.47546  21190789.111 6  21190790.541 6
        51.000          41.000
  21562542.964 8 113311951.715 8  88295042.40645  21562542.961 5  21562545.249 5
        51.000          39.000
  23390442.978 6 122917628.214 6  95779986.10642  23390442.541 2  23390445.531 2
        42.000          21.000
  25038926.695 5 131580433.189 5 102530221.96141  25038928.777 1  25038934.874 1
        35.000          15.000
  22551230.339 7 118507528.398 7  92343530.30245  22551230.095 5  22551231.006 5
        48.000          35.000
  23420187.106 6 123073915.067 6  95901760.58742  23420186.299 2  23420189.236 2
        43.000          22.000
 13  1 30  0 16 30.0000000  0  8G25G02G12G29G04G24G31G14
  20162186.135 8 105953029.354 8  82560821.35346  20162185.518 6  20162190.203 6
        53.000          44.000
  22196354.306 7 116642652.132 7  90890399.53345  22196353.730 5  22196354.077 5
        49.000          36.000
  21203342.413 8 111424352.153 8  86824192.44746  21203342.386 6  21203343.711 6
        51.000          41.000
  21547160.528 7 113231115.620 7  88232053.25245  21547160.347 5  21547162.548 5
        49.000          39.000
  23403536.273 6 122986434.433 6  95833601.32042  23403536.157 2  23403539.544 2
        40.000          22.000
  25061286.561 5 131697931.225 5 102621778.88041  25061287.324 1  25061292.751 1
        37.000          15.000
  22536425.452 7 118429727.637 7  92282906.33445  22536425.164 5  22536426.286 5
        47.000          35.000
  23436672.386 6 123160545.855 6  95969265.06142  23436672.378 2  23436674.049 2
        41.000          22.000
 13  1 30  0 17  0.0000000  0  8G25G02G12G29G04G24G31G14
  20161666.006 8 105950297.744 8  82558692.82246  20161665.665 6  20161670.325 6
        53.000          44.000
  22193330.403 7 116626764.293 7  90878019.40245  22193330.377 5  22193331.031 5
        48.000          36.000
  21215959.479 8 111490656.357 8  86875858.05446  21215959.372 6  21215961.020 6
        52.000          41.000
  21531849.806 8 113150657.243 8  88169358.42346  21531849.525 5  21531851.881 6
        50.000          40.000
  23416727.167 6 123055748.138 6  95887612.00342  23416725.836 2  23416728.924 2
        42.000          22.000
  25083653.536 5 131815469.957 5 102713367.51041  25083653.529 1  25083659.128 1
        35.000          13.000
  22521689.304 7 118352290.230 7  92222565.50045  22521689.568 5  22521690.395 5
        49.000          35.000
  23453219.501 6 123247498.869 6  96037020.62842  23453218.755 2  23453220.712 2
        41.000          22.000
 13  1 30  0 17 30.0000000  0  8G25G02G12G29G04G24G31G14
  20161234.259 8 105948027.522 8  82556923.81846  20161233.755 6  20161238.291 6
        52.000          44.000
  22190413.548 7 116611433.403 7  90866073.26145  22190412.853 5  22190413.483 5
        49.000          36.000
  21228641.018 8 111557296.233 8  86927785.22346  21228640.569 6  21228642.185 6
        51.000          41.000
  21516610.255 8 113070578.451 8  88106959.38045  21516610.982 5  21516613.136 5
        50.000          39.000
  23430012.685 6 123125567.112 6  95942016.40742  23430012.743 2  23430015.158 2
        42.000          22.000
  25106028.179 5 131933047.309 5 102804986.19241  25106028.264 1  25106033.335 1
        35.000          15.000
  22507023.428 7 118275218.710 7  92162509.77645  22507023.326 5  22507024.257 5
        48.000          35.000
  23469826.393 6 123334771.367 6  96105025.13342  23469825.282 2  23469828.482 2
        41.000          22.000
 13  1 30  0 18  0.0000000  0  8G25G02G12G29G04G24G31G14
  20160889.673 8 105946218.840 8  82555514.45046  20160889.420 7  20160894.145 6
        53.000          44.000
  22187602.254 7 116596660.166 7  90854561.65445  22187601.694 5  22187602.179 5
        49.000          36.000
  21241385.550 8 111624270.620 8  86979973.04446  21241385.267 6  21241386.962 6
        51.000          41.000
  21501445.392 8 112990880.397 8  88044857.01346  21501444.984 6  21501447.440 6
        51.000          40.000
  23443394.438 6 123195888.650 6  95996812.41342  23443395.124 2  23443396.321 2
        40.000          21.000
  25128410.518 5 132050661.446 5 102896633.54241  25128409.737 1  25128415.987 1
        37.000          16.000
  22492426.722 7 118198515.149 7  92102740.76845  22492426.947 5  22492427.836 5
        49.000          35.000
  23486493.057 6 123422359.902 6  96173275.93442  23486493.726 2  23486496.789 2
        41.000          22.000
 13  1 30  0 18 30.0000000  0  8G25G02G12G29G04G24G31G14
  20160633.213 8 105944871.994 8  82554464.96246  20160633.167 6  20160637.731 6
        53.000          44.000
  22184896.652 7 116582445.148 7  90843485.02245  22184896.838 5  22184897.582 5
        49.000          37.000
  21254194.014 8 111691578.262 8  87032420.55246  21254193.574 6  21254195.182 6
        52.000          41.000
  21486351.598 8 112911564.915 8  87983052.75445  21486351.692 5  21486354.207 5
        50.000          39.000
  23456871.890 6 123266710.597 6  96051998.34542  23456871.324 2  23456873.000 2
        43.000          20.000
  25150796.490 5 132168310.129 5 102988307.86541  25150795.042 1  25150802.337 1
        35.000          13.000
  22477901.124 7 118122181.729 7  92043260.18545  22477900.929 5  22477901.990 5
        48.000          35.000
  23503220.819 6 123510261.797 6  96241770.87542  23503220.993 2  23503223.016 2
        41.000          21.000
 13  1 30  0 19  0.0000000  0  8G25G02G12G29G04G24G31G14
  20160465.169 8 105943987.076 8  82553775.41146  20160464.750 6  20160469.304 6
        53.000          44.000
  22182298.182 7 116568789.275 7  90832844.08845  22182298.005 5  22182298.490 5
        47.000          36.000
  21267065.409 8 111759217.907 8  87085126.76546  21267065.141 6  21267066.600 6
        51.000          41.000
  21471331.651 8 112832633.336 8  87921547.64546  21471331.566 6  21471334.017 6
        50.000          40.000
  23470443.553 6 123338030.533 6  96107572.33441  23470444.060 1  23470444.161 1
        42.000          19.000
  25173190.856 4 132285991.228 4 103080007.38241  25173190.549 1  25173197.671 1
        34.000          11.000
  22463446.228 7 118046220.808 7  91984069.85245  22463446.220 5  22463446.901 5
        49.000          36.000
  23520007.616 6 123598474.057 6  96310507.66442  23520007.084 2  23520009.282 2
        42.000          22.000
 13  1 30  0 19 30.0000000  0  8G25G02G12G29G04G24G31G14
  20160384.512 8 105943564.369 8  82553446.03347  20160384.207 7  20160389.006 7
        52.000          45.000
  22179806.358 7 116555692.478 7  90822638.80545  22179805.667 5  22179806.068 5
        48.000          36.000
  21280000.166 8 111827189.179 8  87138091.39146  21279999.559 6  21280001.258 6
        51.000          41.000
  21456385.288 8 112754087.265 8  87860342.92345  21456384.908 5  21456387.043 5
        50.000          39.000
  23484110.043 6 123409845.902 6  96163532.32342  23484109.692 2  23484112.022 2
        41.000          21.000
  25195590.441 4 132403702.514 4 103171730.48041  25195589.841 1  25195595.075 1
        34.000          11.000
  22449062.934 7 117970634.701 7  91925171.59045  22449062.677 5  22449063.189 5
        48.000          35.000
  23536851.769 6 123686993.637 6  96379483.92342  23536852.129 2  23536855.150 2
        41.000          22.000
 13  1 30  0 20  0.0000000  0  8G25G02G12G29G04G24G31G14
  20160392.240 8 105943603.927 8  82553476.85547  20160391.893 6  20160396.495 7
        52.000          45.000
  22177420.350 7 116543155.419 7  90812869.68245  22177420.116 5  22177420.243 5
        48.000          36.000
  21292997.455 8 111895490.785 8  87191313.41346  21292997.164 6  21292998.600 6
        52.000          41.000
  21441511.229 8 112675928.030 8  87799439.63545  21441511.527 5  21441513.831 5
        50.000          39.000
  23497868.922 6 123482154.201 6  96219876.44342  23497869.819 2  23497871.067 2
        42.000          20.000
  25217995.749 4 132521442.569 4 103263475.94841  25217995.787 1  25218001.753 1
        33.000          12.000
  22434749.849 7 117895425.563 7  91866567.06245  22434750.566 5  22434751.631 5
        49.000          36.000
  23553754.259 6 123775817.564 6  96448697.33942  23553754.047 2  23553757.279 2
        41.000          22.000
 13  1 30  0 20 30.0000000  0  8G25G02G12G29G04G24G31G14
  20160487.592 8 105944106.087 8  82553868.15146  20160487.506 6  20160491.939 6
        53.000          44.000
  22175141.144 7 116531179.005 7  90803537.41545  22175140.869 5  22175141.182 5
        48.000          36.000
  21306057.072 8 111964121.281 8  87244791.71646  21306057.173 6  21306058.660 6
        51.000          41.000
  21426711.931 8 112598157.478 8  87738839.21645  21426712.219 5  21426714.350 5
        50.000          39.000
  23511723.189 6 123554953.080 6  96276602.84041  23511721.512 1  23511722.916 1
        40.000          19.000
  25240405.695 4 132639209.110 4 103355242.05741  25240403.387 1  25240412.603 1
        32.000          11.000
  22420511.069 7 117820595.741 7  91808258.11345  22420511.220 5  22420512.121 5
        49.000          36.000
  23570715.398 6 123864942.981 6  96518145.66342  23570714.058 2  23570716.694 2
        41.000          21.000
 13  1 30  0 21  0.0000000  0  8G25G02G12G29G04G24G31G14
  20160671.278 8 105945070.866 8  82554619.92346  20160670.990 6  20160675.592 6
        52.000          44.000
  22172969.557 8 116519763.764 8  90794642.42845  22172968.842 5  22172969.296 5
        50.000          36.000
  21319178.985 8 112033079.372 8  87298525.28646  21319179.366 6  21319180.791 6
        50.000          41.000
  21411987.490 7 112520776.941 7  87678542.70446  21411987.249 5  21411989.703 6
        49.000          40.000
  23525668.015 6 123628239.818 6  96333709.38141  23525667.688 1  23525671.112 1
        40.000          17.000
  25262821.490 4 132757000.195 4 103447027.28841  25262822.505 1  25262827.002 1
        34.000          11.000
  22406344.168 7 117746147.255 7  91750246.30745  22406344.276 5  22406344.983 5
        48.000          36.000
  23587733.021 6 123954366.969 6  96587826.65242  23587731.032 2  23587733.696 2
        42.000          22.000
 13  1 30  0 21 30.0000000  0  8G25G02G12G29G04G24G31G14
  20160943.218 8 105946498.515 8  82555732.37746  20160942.670 6  20160947.332 6
        53.000          44.000
  22170903.631 8 116508909.676 8  90786184.70345  22170903.381 5  22170903.847 5
        50.000          36.000
  21332363.623 8 112102363.454 8  87352512.87346  21332363.592 6  21332364.912 6
        51.000          40.000
  21397336.304 8 112443788.035 8  87618551.35746  21397336.890 6  21397338.959 6
        50.000          40.000
  23539706.871 5 123702012.231 5  96391194.38441  23539707.617 1  23539707.773 1
        39.000          17.000
  25285242.616 5 132874813.472 5 103538829.86641  25285240.444 1  25285245.355 1
        35.000          12.000
  22392250.103 8 117672082.634 8  91692533.61545  22392250.199 5  22392251.165 5
        50.000          36.000
  23604805.789 6 124044086.062 6  96657737.60342  23604805.176 2  23604807.233 2
        42.000          22.000
 13  1 30  0 22  0.0000000  0  8G25G02G12G29G04G24G31G14
  20161302.742 8 105948389.096 8  82557205.55447  20161302.442 7  20161306.954 7
        53.000          45.000
  22168945.169 7 116498617.491 7  90778164.82645  22168944.710 5  22168945.210 5
        48.000          36.000
  21345609.944 8 112171973.274 8  87406754.28646  21345609.867 6  21345611.420 6
        52.000          41.000
  21382761.025 8 112367192.344 8  87558866.41646  21382760.948 6  21382763.242 6
        51.000          40.000
  23553836.907 6 123776267.429 6  96449055.56541  23553835.374 1  23553839.397 1
        40.000          17.000
  25307663.243 5 132992647.657 5 103630648.71641  25307664.141 1  25307669.634 1
        35.000          14.000
  22378228.824 7 117598403.920 7  91635121.63345  22378229.187 5  22378230.442 5
        47.000          36.000
  23621933.485 6 124134097.506 6  96727876.36542  23621932.594 2  23621936.134 2
        41.000          22.000
 13  1 30  0 22 30.0000000  0  8G25G02G12G29G04G24G31G14
  20161750.386 8 105950742.808 8  82559039.61746  20161750.311 6  20161754.851 6
        53.000          44.000
  22167093.274 7 116488887.503 7  90770583.02545  22167092.901 5  22167093.971 5
        49.000          36.000
  21358917.749 8 112241907.872 8  87461248.77746  21358918.031 6  21358919.514 6
        51.000          41.000
  21368260.433 8 112290991.078 8  87499488.81646  21368260.391 6  21368262.742 6
        50.000          40.000
  23568058.859 6 123851003.333 6  96507291.34741  23568059.622 1  23568060.539 1
        40.000          19.000
  25330090.803 4 133110500.354 4 103722481.96641  25330090.031 1  25330097.582 1
        33.000          11.000
  22364282.769 7 117525113.457 7  91578012.18445  22364282.746 5  22364283.779 5
        49.000          36.000
  23639117.459 6 124224398.469 6  96798240.71442  23639117.292 2  23639118.685 2
        42.000          22.000
 13  1 30  0 23  0.0000000  0  8G25G02G12G29G04G24G31G14
  20162286.707 8 105953559.729 8  82561234.61646  20162286.393 6  20162290.941 6
        54.000          44.000
  22165348.456 7 116479720.341 7  90763439.78545  22165348.322 5  22165349.195 5
        48.000          36.000
  21372287.603 8 112312165.242 8  87515994.76946  21372287.529 6  21372289.009 6
        51.000          41.000
  21353835.072 8 112215185.508 8  87440419.54946  21353835.108 6  21353837.433 6
        51.000          40.000
  23582371.678 5 123926216.980 5  96565899.41041  23582372.381 1  23582374.295 1
        38.000          15.000
  25352520.207 4 133228369.528 4 103814328.04541  25352519.644 1  25352526.326 1
        33.000          10.000
  22350410.027 7 117452213.562 7  91521207.06245  22350410.102 5  22350411.312 5
        48.000          36.000
  23656355.919 6 124314985.947 6  96868828.31942  23656355.137 2  23656356.722 2
        42.000          22.000
 13  1 30  0 23 30.0000000  0  8G25G02G12G29G04G24G31G14
  20162911.215 8 105956840.040 8  82563790.70046  20162910.689 6  20162915.231 6
        53.000          44.000
  22163711.402 7 116471116.301 7  90756735.34245  22163711.018 5  22163711.857 5
        49.000          36.000
  21385718.331 8 112382744.629 8  87570991.68746  21385718.225 6  21385719.889 6
        52.000          40.000
  21339485.083 8 112139777.125 8  87381659.77946  21339485.309 6  21339487.551 6
        51.000          40.000
  23596774.443 5 124001906.214 5  96624877.99541  23596774.705 1  23596775.140 1
        35.000          13.000
  25374953.391 4 133346253.207 4 103906185.49141  25374952.991 1  25374958.196 1
        34.000          10.000
  22336612.402 7 117379706.052 7  91464707.70545  22336612.318 5  22336613.591 5
        49.000          36.000
  23673646.873 6 124405856.586 6  96939636.55642  23673647.277 2  23673650.928 2
        41.000          22.000
 13  1 30  0 24  0.0000000  0  8G25G02G12G29G04G24G31G14
  20163623.333 8 105960583.781 8  82566707.89646  20163622.987 6  20163627.776 6
        53.000          44.000
  22162181.850 8 116463075.596 8  90750469.86645  22162181.159 5  22162181.817 5
        50.000          36.000
  21399209.621 8 112453644.817 8  87626238.57346  21399210.019 6  21399211.723 6
        51.000          40.000
  21325211.618 8 112064767.510 8  87323210.72746  21325211.401 6  21325213.680 6
        51.000          40.000
  23611266.132 5 124078068.072 5  96684224.90841  23611268.676 1  23611268.722 1
        36.000          13.000
  25397387.037 4 133464149.526 4 103998052.77641  25397388.164 1  25397393.365 1
        33.000          11.000
  22322890.232 8 117307593.541 8  91408516.13045  22322889.994 5  22322891.080 5
        50.000          37.000
  23690993.403 6 124497007.587 6  97010663.26742  23690992.817 2  23690995.137 2
        41.000          22.000
 13  1 30  0 24 30.0000000  0  8G25G02G12G29G04G24G31G14
  20164424.135 8 105964791.125 8  82569986.34846  20164423.760 6  20164428.403 6
        53.000          44.000
  22160759.103 7 116455598.877 7  90744643.86045  22160758.573 5  22160758.954 5
        49.000          36.000
  21412762.774 8 112524864.876 8  87681734.72146  21412762.849 6  21412764.559 6
        51.000          41.000
  21311013.770 8 111990158.628 8  87265073.94646  21311013.980 6  21311016.074 6
        51.000          40.000
  23625850.021 5 124154700.383 5  96743938.36041  23625849.512 1  23625852.491 1
        35.000          12.000
  25419821.658 4 133582056.598 4 104089928.43241  25419825.722 1  25419830.792 1
        32.000          11.000
  22309243.261 7 117235878.161 7  91352634.02545  22309243.104 5  22309244.043 5
        49.000          36.000
  23708391.677 6 124588435.860 6  97081906.07442  23708390.983 2  23708392.392 2
        41.000          22.000
 13  1 30  0 25  0.0000000  0  8G25G02G12G29G04G24G31G14
  20165312.692 8 105969462.107 8  82573626.07046  20165312.543 6  20165317.246 6
        53.000          44.000
  22159443.533 7 116448686.284 7  90739257.43345  22159443.130 5  22159443.446 5
        49.000          36.000
  21426376.002 8 112596403.478 8  87737479.07646  21426376.407 6  21426377.990 6
        50.000          41.000
  21296892.609 8 111915951.460 8  87207250.19246  21296892.535 6  21296894.877 6
        50.000          40.000
  23640521.766 5 124231800.182 5  96804016.14641  23640521.618 1  23640523.673 1
        36.000          12.000
  25442262.747 4 133699972.087 4 104181810.67741  25442264.033 1  25442269.849 1
        32.000          10.000
  22295672.081 7 117164561.933 7  91297062.93345  22295672.115 5  22295673.170 5
        48.000          37.000
  23725841.666 6 124680138.457 6  97153362.57542  23725841.773 2  23725843.999 2
        40.000          20.000
 13  1 30  0 25 30.0000000  0  8G25G02G12G29G04G24G31G14
  20166289.734 8 105974596.818 8  82577627.14246  20166289.571 6  20166294.262 6
        52.000          44.000
  22158235.924 7 116442337.955 7  90734310.68345  22158235.155 5  22158235.701 5
        49.000          36.000
  21440050.118 8 112668259.160 8  87793470.50646  21440050.099 6  21440051.529 6
        51.000          40.000
  21282847.901 8 111842147.431 8  87149740.56446  21282848.161 6  21282850.552 6
        50.000          40.000
  23655280.940 5 124309365.046 5  96864456.34041  23655282.422 1  23655284.603 1
        35.000          10.000
  25464703.891 4 133817894.482 4 104273698.22741  25464702.426 1  25464707.736 1
        32.000          10.000
  22282177.852 8 117093647.147 8  91241804.65645  22282177.318 5  22282178.512 5
        50.000          37.000
  23743344.739 6 124772112.217 6  97225030.44942  23743344.360 2  23743344.980 2
        42.000          20.000
 13  1 30  0 26  0.0000000  0  8G25G02G12G29G04G24G31G14
  20167355.536 8 105980195.365 8  82581989.64546  20167355.059 6  20167359.573 6
        52.000          44.000
  22157134.688 7 116436554.453 7  90729804.06245  22157134.317 5  22157134.659 5
        48.000          36.000
  21453783.665 8 112740430.951 8  87849708.25846  21453783.861 6  21453785.236 6
        50.000          40.000
  21268880.800 8 111768747.969 8  87092546.18646  21268880.636 6  21268883.061 6
        51.000          41.000
  23670128.756 4 124387392.485 4  96925256.89441  23670127.811 1  23670130.958 1
        34.000           9.000
  25487145.060 4 133935821.532 4 104365589.50441  25487143.649 1  25487150.493 1
        32.000           8.000
  22268759.870 7 117023136.168 7  91186861.03245  22268759.840 5  22268760.657 5
        49.000          37.000
  23760897.694 6 124864354.489 6  97296907.48642  23760896.071 2  23760898.381 2
        41.000          20.000
 13  1 30  0 26 30.0000000  0  8G25G02G12G29G04G24G31G14
  20168509.155 8 105986257.830 8  82586713.64246  20168508.636 6  20168513.256 6
        53.000          44.000
  22156141.787 7 116431335.831 7  90725737.61045  22156141.433 5  22156141.840 5
        48.000          36.000
  21467577.252 8 112812917.483 8  87906191.26746  21467577.436 6  21467578.947 6
        51.000          40.000
  21254990.427 8 111695754.315 8  87035668.02346  21254990.546 6  21254992.604 6
        50.000          41.000
  23685065.538 4 124465879.828 4  96986415.84641  23685066.853 1  23685068.023 1
        34.000           9.000
  25509587.088 4 134053751.165 4 104457482.72741  25509588.653 1  25509588.980 1
        30.000           6.000
  22255419.022 7 116953031.079 7  91132233.70045  22255419.259 5  22255419.975 5
        47.000          37.000
  23778501.270 6 124956861.823 6  97368991.11941  23778498.964 1  23778501.734 1
        41.000          19.000
 13  1 30  0 27  0.0000000  0  8G25G02G12G29G04G24G31G14
  20169750.803 8 105992784.168 8  82591799.09846  20169750.497 6  20169755.183 6
        53.000          44.000
  22155256.970 7 116426682.469 7  90722111.62245  22155256.306 5  22155256.300 5
        48.000          36.000
  21481431.301 8 112885718.211 8  87962919.10646  21481431.246 6  21481432.815 6
        51.000          40.000
  21241178.037 8 111623167.868 8  86979107.16246  21241177.688 6  21241180.125 6
        50.000          41.000
  23700091.591 4 124544824.511 4  97047931.16641  23700089.800 1  23700091.888 1
        34.000           5.000
  25532024.068 3 134171681.580 3 104549376.58941  25532021.627 1  25532029.832 1
        29.000           3.000
  22242156.588 7 116883334.050 7  91077924.32445  22242156.260 5  22242157.244 5
        49.000          37.000
  23796153.810 6 125049631.020 6  97441278.74541  23796152.994 1  23796155.272 1
        40.000          19.000
 13  1 30  0 27 30.0000000  0  8G25G02G12G29G04G24G31G14
  20171081.200 8 105999774.529 8  82597246.13146  20171080.814 6  20171085.296 6
        53.000          44.000
  22154478.824 8 116422594.627 8  90718926.29545  22154478.264 5  22154478.444 5
        50.000          36.000
  21495343.847 8 112958831.406 8  88019890.42046  21495344.022 6  21495345.822 6
        51.000          40.000
  21227442.930 8 111550990.234 8  86922864.86546  21227442.823 6  21227445.174 6
        51.000          41.000
  23715196.962 4 124624223.916 4  97109800.86241  23715199.667 1  23715201.538 1
        33.000           6.000
  25554468.117 3 134289611.323 3 104641269.95641  25554470.697 1  25554477.106 1
        28.000           4.000
  22228971.445 8 116814047.269 8  91023934.62545  22228971.381 5  22228972.562 5
        50.000          37.000
  23813856.300 6 125142659.562 6  97513768.50241  23813854.418 1  23813857.583 1
        40.000          19.000
 13  1 30  0 28  0.0000000  0  8G25G02G12G29G04G24G31G14
  20172499.800 8 106007228.900 8  82603054.72746  20172499.343 6  20172503.930 6
        53.000          44.000
  22153808.379 8 116419072.596 8  90716181.85945  22153807.567 5  22153808.380 5
        50.000          36.000
  21509316.540 8 113032256.258 8  88077104.58046  21509316.360 6  21509318.038 6
        51.000          40.000
  21213786.097 8 111479222.581 8  86866942.02746  21213785.923 6  21213788.167 6
        51.000          41.000
  23730393.370 4 124704075.340 4  97172022.74341  23730391.434 1  23730396.240 1
        33.000           3.000
  25576907.739 3 134407537.942 3
        27.000
  22215864.920 7 116745172.901 7  90970266.28145  22215865.055 5  22215866.341 5
        48.000          37.000
  23831607.968 6 125235944.286 6  97586457.84741  23831608.484 1  23831610.517 1
        40.000          18.000
 13  1 30  0 28 30.0000000  0  8G25G02G12G29G04G24G31G14
  20174006.745 8 106015147.388 8  82609224.98546  20174006.272 6  20174010.883 6
        53.000          44.000
  22153245.814 7 116416116.204 7  90713878.18845  22153245.076 5  22153245.783 5
        49.000          36.000
  21523348.048 8 113105991.581 8  88134560.67046  21523347.652 6  21523349.343 6
        51.000          40.000
  21200207.244 8 111407866.465 8  86811339.87846  21200207.287 6  21200209.584 6
        51.000          41.000
  23745675.877 4 124784376.134 4  97234594.79141  23745676.103 1  23745675.882 1
        34.000           4.000
  25599348.620 3 134525456.710 3
        26.000
  22202837.427 7 116676713.357 7  90916921.18445  22202837.498 5  22202838.558 5
        48.000          37.000
  23849408.072 5 125329481.800 5  97659344.19741  23849407.382 1  23849409.444 1
        39.000          18.000
 13  1 30  0 29  0.0000000  0  7G25G02G12G29G04G31G14
  20175601.675 8 106023529.889 8  82615756.80346  20175601.282 6  20175605.918 6
        52.000          44.000
  22152790.800 7 116413726.015 7  90712015.70945  22152790.615 5  22152790.896 5
        49.000          36.000
  21537438.003 8 113180035.929 8  88192257.55846  21537438.064 6  21537439.649 6
        51.000          40.000
  21186707.261 8 111336922.966 8  86756059.23746  21186707.101 6  21186709.622 6
        51.000          41.000
  23761039.434 4 124865123.525 4  97297514.80341  23761041.471 1  23761040.925 1
        32.000           4.000
  22189889.419 7 116608670.473 7  90863900.75945  22189889.266 5  22189890.614 5
        49.000          37.000
  23867254.965 5 125423269.121 5  97732425.17941  23867254.559 1  23867255.843 1
        39.000          18.000
 13  1 30  0 29 30.0000000  0  8G25G02G12G29G04G31G10G14
  20177285.415 8 106032376.515 8  82622650.27046  20177284.829 6  20177289.382 6
        52.000          44.000
  22152443.998 7 116411901.959 7  90710594.37745  22152443.492 5  22152443.624 5
        48.000          36.000
  21551586.826 8 113254387.900 8  88250194.15946  21551586.772 5  21551588.293 6
        51.000          40.000
  21173285.836 7 111266393.835 7  86701101.48446  21173285.813 6  21173288.357 6
        49.000          41.000
  23776490.277 4 124946315.061 4  97360780.87341  23776492.887 1  23776494.497 1
        32.000           4.000
  22177020.808 7 116541046.419 7  90811206.68145  22177020.795 5  22177022.032 5
        48.000          37.000
  24927976.790 4 130997393.183 4
        33.000
  23885148.782 5 125517303.468 5  97805698.66441  23885147.737 1  23885151.010 1
        39.000          18.000
 13  1 30  0 30  0.0000000  0  8G25G02G12G29G04G31G10G14
  20179056.487 8 106041687.232 8  82629905.36846  20179056.518 6  20179061.227 6
        52.000          44.000
  22152203.964 7 116410644.013 7  90709614.16545  22152203.693 5  22152204.209 5
        49.000          36.000
  21565793.947 8 113329046.756 8  88308369.87646  21565793.976 5  21565795.312 6
        50.000          40.000
  21159943.596 8 111196280.047 8  86646467.36846  21159943.470 6  21159946.211 6
        52.000          41.000
  23792025.803 4 125027948.006 4  97424391.03541  23792020.494 1  23792028.870 1
        32.000           1.000
  22164232.832 7 116473843.577 7  90758840.83145  22164232.549 5  22164234.131 5
        49.000          37.000
  24914550.605 5 130926829.965 5
        37.000
  23903089.552 5 125611581.576 5  97879162.09941  23903089.167 1  23903092.112 1
        39.000          18.000
 13  1 30  0 30 30.0000000  0  8G25G02G12G29G04G31G10G14
  20180917.107 8 106051462.031 8  82637522.10146  20180916.661 6  20180921.299 6
        52.000          44.000
  22152072.528 8 116409952.367 8  90709075.22845  22152072.128 5  22152072.537 5
        50.000          36.000
  21580058.741 8 113404010.897 8  88366783.48346  21580058.955 6  21580060.531 6
        50.000          40.000
  21146680.775 8 111126583.057 8  86592158.04146  21146680.726 6  21146683.130 6
        50.000          41.000
